{
  "type": "FeatureCollection", 
  "features": [
    {
      "geometry": {
        "type": "Point", 
        "coordinates": [
          -3.4231533, 
          56.04046839999999
        ]
      }, 
      "type": "Feature", 
      "properties": {
        "url": "http://www.eatsrosyth.org.uk/", 
        "name": "EATS Rosyth"
      }
    }, 
    {
      "geometry": {
        "type": "Point", 
        "coordinates": [
          -2.8024063, 
          55.61119189999999
        ]
      }, 
      "type": "Feature", 
      "properties": {
        "url": "https://galashielsfoodbank.co.uk/", 
        "name": "Galashiels"
      }
    }, 
    {
      "geometry": {
        "type": "Point", 
        "coordinates": [
          -4.2696746, 
          55.8347832
        ]
      }, 
      "type": "Feature", 
      "properties": {
        "url": "https://qpgpc.com/food-bank/", 
        "name": "Queen's Park Govanhill Parish Church"
      }
    }, 
    {
      "geometry": {
        "type": "Point", 
        "coordinates": [
          -2.9114556, 
          50.9265785
        ]
      }, 
      "type": "Feature", 
      "properties": {
        "url": "http://ilminsterpc.org.uk/community/", 
        "name": "Illminster"
      }
    }, 
    {
      "geometry": {
        "type": "Point", 
        "coordinates": [
          -2.2444617, 
          53.7896995
        ]
      }, 
      "type": "Feature", 
      "properties": {
        "url": "https://www.burnleyfccommunity.org/facilities/burnley-community-kitchen/", 
        "name": "Burnley Community Kitchen"
      }
    }, 
    {
      "geometry": {
        "type": "Point", 
        "coordinates": [
          -4.0941163, 
          50.4200633
        ]
      }, 
      "type": "Feature", 
      "properties": {
        "url": "https://northplymouth.foodbank.org.uk", 
        "name": "North Plymouth"
      }
    }, 
    {
      "geometry": {
        "type": "Point", 
        "coordinates": [
          -2.7907747, 
          54.0621765
        ]
      }, 
      "type": "Feature", 
      "properties": {
        "url": "https://www.eggcup.org", 
        "name": "Eggcup"
      }
    }, 
    {
      "geometry": {
        "type": "Point", 
        "coordinates": [
          -0.054873, 
          51.5122435
        ]
      }, 
      "type": "Feature", 
      "properties": {
        "url": "https://www.facebook.com/groups/628117188029280/", 
        "name": "E1"
      }
    }, 
    {
      "geometry": {
        "type": "Point", 
        "coordinates": [
          -0.1632258, 
          51.1161047
        ]
      }, 
      "type": "Feature", 
      "properties": {
        "url": "https://www.crawleyfoodbankpartnership.co.uk/", 
        "name": "Crawley"
      }
    }, 
    {
      "geometry": {
        "type": "Point", 
        "coordinates": [
          -2.6948257, 
          53.7657788
        ]
      }, 
      "type": "Feature", 
      "properties": {
        "url": "https://noorfoodbank.co.uk/", 
        "name": "Noor"
      }
    }, 
    {
      "geometry": {
        "type": "Point", 
        "coordinates": [
          -1.3609515, 
          53.1849271
        ]
      }, 
      "type": "Feature", 
      "properties": {
        "url": "https://alccholmewood.com/living-hope", 
        "name": "Living Hope"
      }
    }, 
    {
      "geometry": {
        "type": "Point", 
        "coordinates": [
          -4.4933344, 
          54.9613047
        ]
      }, 
      "type": "Feature", 
      "properties": {
        "url": "https://www.facebook.com/MacharsBasicsFoodBank2012/", 
        "name": "Machars Churches"
      }
    }, 
    {
      "geometry": {
        "type": "Point", 
        "coordinates": [
          -2.5870739, 
          53.3876845
        ]
      }, 
      "type": "Feature", 
      "properties": {
        "url": "https://warrington.foodbank.org.uk", 
        "name": "Warrington"
      }
    }, 
    {
      "geometry": {
        "type": "Point", 
        "coordinates": [
          -2.2017408, 
          53.82847839999999
        ]
      }, 
      "type": "Feature", 
      "properties": {
        "url": "http://www.inspiringgrace.co.uk/", 
        "name": "Inspiring Grace"
      }
    }, 
    {
      "geometry": {
        "type": "Point", 
        "coordinates": [
          -2.2233886, 
          53.164528
        ]
      }, 
      "type": "Feature", 
      "properties": {
        "url": "https://www.nlchurch.org.uk/community/the-storehouse", 
        "name": "The Storehouse Congleton"
      }
    }, 
    {
      "geometry": {
        "type": "Point", 
        "coordinates": [
          -0.2687476, 
          51.6602877
        ]
      }, 
      "type": "Feature", 
      "properties": {
        "url": "https://borehamwood.foodbank.org.uk", 
        "name": "Borehamwood"
      }
    }, 
    {
      "geometry": {
        "type": "Point", 
        "coordinates": [
          -1.7011533, 
          55.4052903
        ]
      }, 
      "type": "Feature", 
      "properties": {
        "url": "https://www.alnwickdistrictfoodbank.co.uk/", 
        "name": "Alnwick District"
      }
    }, 
    {
      "geometry": {
        "type": "Point", 
        "coordinates": [
          -0.406323, 
          51.443165
        ]
      }, 
      "type": "Feature", 
      "properties": {
        "url": "https://www.riversidevineyard.com/storehouse", 
        "name": "Riverside Vineyard Storehouse"
      }
    }, 
    {
      "geometry": {
        "type": "Point", 
        "coordinates": [
          0.1147387, 
          50.78021769999999
        ]
      }, 
      "type": "Feature", 
      "properties": {
        "url": "http://www.kings-well.org.uk/storehouse-plus-email-new.php", 
        "name": "Seahaven"
      }
    }, 
    {
      "geometry": {
        "type": "Point", 
        "coordinates": [
          -2.3047717, 
          52.1248602
        ]
      }, 
      "type": "Feature", 
      "properties": {
        "url": "https://malvernhills.foodbank.org.uk", 
        "name": "Malvern Hills"
      }
    }, 
    {
      "geometry": {
        "type": "Point", 
        "coordinates": [
          -2.880561, 
          56.4458131
        ]
      }, 
      "type": "Feature", 
      "properties": {
        "url": "https://www.taybridgeheadfoodbank.org.uk/", 
        "name": "Tay Bridgehead"
      }
    }, 
    {
      "geometry": {
        "type": "Point", 
        "coordinates": [
          -1.5423607, 
          53.7710741
        ]
      }, 
      "type": "Feature", 
      "properties": {
        "url": "https://leedssouthandeast.foodbank.org.uk", 
        "name": "Leeds South & East"
      }
    }, 
    {
      "geometry": {
        "type": "Point", 
        "coordinates": [
          -3.4124852, 
          50.6213819
        ]
      }, 
      "type": "Feature", 
      "properties": {
        "url": "http://www.exmouthlarder.co.uk", 
        "name": "Exmouth Community Larder"
      }
    }, 
    {
      "geometry": {
        "type": "Point", 
        "coordinates": [
          -0.07827089999999999, 
          51.60734619999999
        ]
      }, 
      "type": "Feature", 
      "properties": {
        "url": "https://www.selbytrust.co.uk/selby-food-hub", 
        "name": "Selby Centre"
      }
    }, 
    {
      "geometry": {
        "type": "Point", 
        "coordinates": [
          -2.2514713, 
          51.3478187
        ]
      }, 
      "type": "Feature", 
      "properties": {
        "url": "https://bradfordonavon.foodbank.org.uk", 
        "name": "Bradford on Avon"
      }
    }, 
    {
      "geometry": {
        "type": "Point", 
        "coordinates": [
          -2.996425700000001, 
          53.6471066
        ]
      }, 
      "type": "Feature", 
      "properties": {
        "url": "https://www.shorelinechurch.org.uk/what-we-do/", 
        "name": "Shoreline"
      }
    }, 
    {
      "geometry": {
        "type": "Point", 
        "coordinates": [
          -0.0146932, 
          51.1337328
        ]
      }, 
      "type": "Feature", 
      "properties": {
        "url": "https://eastgrinstead.foodbank.org.uk", 
        "name": "East Grinstead"
      }
    }, 
    {
      "geometry": {
        "type": "Point", 
        "coordinates": [
          -2.6610171, 
          51.2017108
        ]
      }, 
      "type": "Feature", 
      "properties": {
        "url": "http://wellsvineyard.com/index.php/compassion", 
        "name": "Wells Storehouse"
      }
    }, 
    {
      "geometry": {
        "type": "Point", 
        "coordinates": [
          0.8852076, 
          51.315892
        ]
      }, 
      "type": "Feature", 
      "properties": {
        "url": "https://faversham.foodbank.org.uk/", 
        "name": "Faversham"
      }
    }, 
    {
      "geometry": {
        "type": "Point", 
        "coordinates": [
          -1.6733133, 
          54.974127
        ]
      }, 
      "type": "Feature", 
      "properties": {
        "url": "https://newcastlewestend.foodbank.org.uk/", 
        "name": "Newcastle West End"
      }
    }, 
    {
      "geometry": {
        "type": "Point", 
        "coordinates": [
          1.3838063, 
          51.3875719
        ]
      }, 
      "type": "Feature", 
      "properties": {
        "url": "https://margate-independent-foodbank.business.site", 
        "name": "Margate"
      }
    }, 
    {
      "geometry": {
        "type": "Point", 
        "coordinates": [
          -0.9738391, 
          51.4364284
        ]
      }, 
      "type": "Feature", 
      "properties": {
        "url": "https://readifood.org.uk", 
        "name": "ReadiFood"
      }
    }, 
    {
      "geometry": {
        "type": "Point", 
        "coordinates": [
          -2.1881338, 
          51.4319427
        ]
      }, 
      "type": "Feature", 
      "properties": {
        "url": "https://corshamchurchesfoodbank.org.uk", 
        "name": "Corsham Churches"
      }
    }, 
    {
      "geometry": {
        "type": "Point", 
        "coordinates": [
          -1.904379, 
          50.771552
        ]
      }, 
      "type": "Feature", 
      "properties": {
        "url": "https://kinsonwesthowe.foodbank.org.uk/", 
        "name": "Kinson & West Howe"
      }
    }, 
    {
      "geometry": {
        "type": "Point", 
        "coordinates": [
          -3.774528, 
          51.7672488
        ]
      }, 
      "type": "Feature", 
      "properties": {
        "url": "http://www.ystradgynlaisvc.org.uk/foodbank.html", 
        "name": "Ystradgynlais"
      }
    }, 
    {
      "geometry": {
        "type": "Point", 
        "coordinates": [
          -1.2070888, 
          54.68618300000001
        ]
      }, 
      "type": "Feature", 
      "properties": {
        "url": "https://hartlepool.foodbank.org.uk", 
        "name": "Hartlepool"
      }
    }, 
    {
      "geometry": {
        "type": "Point", 
        "coordinates": [
          -1.254061, 
          51.6054045
        ]
      }, 
      "type": "Feature", 
      "properties": {
        "url": "https://www.didcotbaptist.org.uk/mission/local-activities/emergency-foodbank.php", 
        "name": "Didcot"
      }
    }, 
    {
      "geometry": {
        "type": "Point", 
        "coordinates": [
          -0.6965091, 
          52.3024437
        ]
      }, 
      "type": "Feature", 
      "properties": {
        "url": "http://www.daylightcf.org/foodbank/", 
        "name": "Wellingborough & District"
      }
    }, 
    {
      "geometry": {
        "type": "Point", 
        "coordinates": [
          -6.0452407, 
          54.51191439999999
        ]
      }, 
      "type": "Feature", 
      "properties": {
        "url": "https://lisburn.foodbank.org.uk", 
        "name": "Lisburn"
      }
    }, 
    {
      "geometry": {
        "type": "Point", 
        "coordinates": [
          -5.469863800000001, 
          56.4100635
        ]
      }, 
      "type": "Feature", 
      "properties": {
        "url": "https://www.hopekitchen.org.uk/", 
        "name": "Hope Kitchen"
      }
    }, 
    {
      "geometry": {
        "type": "Point", 
        "coordinates": [
          -5.671071, 
          54.642536
        ]
      }, 
      "type": "Feature", 
      "properties": {
        "url": "https://storehousenorthdown.com", 
        "name": "Storehouse North Down"
      }
    }, 
    {
      "geometry": {
        "type": "Point", 
        "coordinates": [
          -3.0047604, 
          51.5838385
        ]
      }, 
      "type": "Feature", 
      "properties": {
        "url": "http://www.stowparkcommunitycentre.org.uk/what-we-do/food-bank", 
        "name": "Stow Park Community Centre"
      }
    }, 
    {
      "geometry": {
        "type": "Point", 
        "coordinates": [
          -5.1039001, 
          50.1706087
        ]
      }, 
      "type": "Feature", 
      "properties": {
        "url": "https://penrynfalmouth.foodbank.org.uk", 
        "name": "Penryn & Falmouth"
      }
    }, 
    {
      "geometry": {
        "type": "Point", 
        "coordinates": [
          -0.0864751, 
          51.4743088
        ]
      }, 
      "type": "Feature", 
      "properties": {
        "url": "https://www.cschub.co.uk/what-we-do", 
        "name": "Central Southwark Community Hub"
      }
    }, 
    {
      "geometry": {
        "type": "Point", 
        "coordinates": [
          -5.2734967, 
          50.1014991
        ]
      }, 
      "type": "Feature", 
      "properties": {
        "url": "https://helstonthelizard.foodbank.org.uk", 
        "name": "Helston & Lizard"
      }
    }, 
    {
      "geometry": {
        "type": "Point", 
        "coordinates": [
          -1.8245691, 
          52.563797
        ]
      }, 
      "type": "Feature", 
      "properties": {
        "url": "https://scurc.org.uk/food4u-foodcycle/", 
        "name": "Food4U"
      }
    }, 
    {
      "geometry": {
        "type": "Point", 
        "coordinates": [
          -2.5205468, 
          53.068303
        ]
      }, 
      "type": "Feature", 
      "properties": {
        "url": "https://nantwich.foodbank.org.uk", 
        "name": "Nantwich"
      }
    }, 
    {
      "geometry": {
        "type": "Point", 
        "coordinates": [
          -1.303754, 
          50.7525144
        ]
      }, 
      "type": "Feature", 
      "properties": {
        "url": "https://isleofwight.foodbank.org.uk", 
        "name": "Isle of Wight"
      }
    }, 
    {
      "geometry": {
        "type": "Point", 
        "coordinates": [
          -6.389378799999999, 
          58.2082658
        ]
      }, 
      "type": "Feature", 
      "properties": {
        "url": "http://www.newwinechurch.com/ministries/eilean-siar-foodbank/", 
        "name": "Eilean Siar"
      }
    }, 
    {
      "geometry": {
        "type": "Point", 
        "coordinates": [
          -1.3758333, 
          52.7241667
        ]
      }, 
      "type": "Feature", 
      "properties": {
        "url": "https://coalville.foodbank.org.uk", 
        "name": "Coalville"
      }
    }, 
    {
      "geometry": {
        "type": "Point", 
        "coordinates": [
          -3.5159901, 
          50.393561
        ]
      }, 
      "type": "Feature", 
      "properties": {
        "url": "https://www.bxyes.org.uk", 
        "name": "Brixham"
      }
    }, 
    {
      "geometry": {
        "type": "Point", 
        "coordinates": [
          -2.8782114, 
          54.0646818
        ]
      }, 
      "type": "Feature", 
      "properties": {
        "url": "https://morecambebay.foodbank.org.uk", 
        "name": "Morecambe Bay"
      }
    }, 
    {
      "geometry": {
        "type": "Point", 
        "coordinates": [
          -0.8348148, 
          51.410358
        ]
      }, 
      "type": "Feature", 
      "properties": {
        "url": "https://wokingham.foodbank.org.uk/", 
        "name": "Wokingham"
      }
    }, 
    {
      "geometry": {
        "type": "Point", 
        "coordinates": [
          -2.2019125, 
          53.4290031
        ]
      }, 
      "type": "Feature", 
      "properties": {
        "url": "https://burnage.foodbank.org.uk/", 
        "name": "Burnage"
      }
    }, 
    {
      "geometry": {
        "type": "Point", 
        "coordinates": [
          -0.413832, 
          51.88290199999999
        ]
      }, 
      "type": "Feature", 
      "properties": {
        "url": "https://lutonfoodbank.org.uk", 
        "name": "Luton"
      }
    }, 
    {
      "geometry": {
        "type": "Point", 
        "coordinates": [
          -3.4319118, 
          56.3970492
        ]
      }, 
      "type": "Feature", 
      "properties": {
        "url": "https://perthkinross.foodbank.org.uk", 
        "name": "Perth and Kinross"
      }
    }, 
    {
      "geometry": {
        "type": "Point", 
        "coordinates": [
          0.008561599999999999, 
          51.433907
        ]
      }, 
      "type": "Feature", 
      "properties": {
        "url": "http://wdcfplus.org.uk/", 
        "name": "Whitefoot and Downham"
      }
    }, 
    {
      "geometry": {
        "type": "Point", 
        "coordinates": [
          -1.9101749, 
          53.25718699999999
        ]
      }, 
      "type": "Feature", 
      "properties": {
        "url": "http://www.highpeakfoodbank.co.uk/", 
        "name": "High Peak"
      }
    }, 
    {
      "geometry": {
        "type": "Point", 
        "coordinates": [
          -3.682498199999999, 
          50.4350692
        ]
      }, 
      "type": "Feature", 
      "properties": {
        "url": "https://connectionhubs.weebly.com/food-bank.html", 
        "name": "Totnes Connection Hub"
      }
    }, 
    {
      "geometry": {
        "type": "Point", 
        "coordinates": [
          -1.8737147, 
          52.2143988
        ]
      }, 
      "type": "Feature", 
      "properties": {
        "url": "https://arden.foodbank.org.uk/", 
        "name": "Arden"
      }
    }, 
    {
      "geometry": {
        "type": "Point", 
        "coordinates": [
          -4.03894, 
          51.66825
        ]
      }, 
      "type": "Feature", 
      "properties": {
        "url": "https://swansea.foodbank.org.uk/", 
        "name": "Swansea"
      }
    }, 
    {
      "geometry": {
        "type": "Point", 
        "coordinates": [
          -1.7874416, 
          50.8456
        ]
      }, 
      "type": "Feature", 
      "properties": {
        "url": "https://www.southampton-city-catholics.org.uk/More/Outreach/Poitiers-Care/Poitiers-Care.php", 
        "name": "Poitiers Care"
      }
    }, 
    {
      "geometry": {
        "type": "Point", 
        "coordinates": [
          0.0847541, 
          51.445515
        ]
      }, 
      "type": "Feature", 
      "properties": {
        "url": "https://bexley.foodbank.org.uk", 
        "name": "Bexley"
      }
    }, 
    {
      "geometry": {
        "type": "Point", 
        "coordinates": [
          -7.465760299999999, 
          54.8264514
        ]
      }, 
      "type": "Feature", 
      "properties": {
        "url": "https://strabane.foodbank.org.uk/", 
        "name": "Strabane"
      }
    }, 
    {
      "geometry": {
        "type": "Point", 
        "coordinates": [
          -1.9832241, 
          52.452227
        ]
      }, 
      "type": "Feature", 
      "properties": {
        "url": "https://quintonoldbury.foodbank.org.uk", 
        "name": "Quinton & Oldbury"
      }
    }, 
    {
      "geometry": {
        "type": "Point", 
        "coordinates": [
          -3.6617778, 
          50.7912573
        ]
      }, 
      "type": "Feature", 
      "properties": {
        "url": "https://www.creditoncongregational.org/crediton-food-bank", 
        "name": "Crediton"
      }
    }, 
    {
      "geometry": {
        "type": "Point", 
        "coordinates": [
          -1.6268559, 
          52.8177759
        ]
      }, 
      "type": "Feature", 
      "properties": {
        "url": "https://www.burtonymca.org", 
        "name": "Burton upon Trent YMCA"
      }
    }, 
    {
      "geometry": {
        "type": "Point", 
        "coordinates": [
          0.1610184, 
          52.6655832
        ]
      }, 
      "type": "Feature", 
      "properties": {
        "url": "https://wisbech.foodbank.org.uk/", 
        "name": "Wisbech"
      }
    }, 
    {
      "geometry": {
        "type": "Point", 
        "coordinates": [
          -1.8630945, 
          51.92129850000001
        ]
      }, 
      "type": "Feature", 
      "properties": {
        "url": "https://northcotswold.foodbank.org.uk", 
        "name": "North Cotswold"
      }
    }, 
    {
      "geometry": {
        "type": "Point", 
        "coordinates": [
          1.1326774, 
          52.339292
        ]
      }, 
      "type": "Feature", 
      "properties": {
        "url": "https://waveney.foodbank.org.uk", 
        "name": "Waveney"
      }
    }, 
    {
      "geometry": {
        "type": "Point", 
        "coordinates": [
          0.4905757000000001, 
          52.9409696
        ]
      }, 
      "type": "Feature", 
      "properties": {
        "url": "https://hunstantondistrict.foodbank.org.uk", 
        "name": "Hunstanton and District"
      }
    }, 
    {
      "geometry": {
        "type": "Point", 
        "coordinates": [
          -2.9540291, 
          53.4016393
        ]
      }, 
      "type": "Feature", 
      "properties": {
        "url": "https://www.asylumlink.org.uk", 
        "name": "Asylum Link Merseyside"
      }
    }, 
    {
      "geometry": {
        "type": "Point", 
        "coordinates": [
          -2.7441447, 
          53.4573861
        ]
      }, 
      "type": "Feature", 
      "properties": {
        "url": "https://sthelens.foodbank.org.uk", 
        "name": "St Helens"
      }
    }, 
    {
      "geometry": {
        "type": "Point", 
        "coordinates": [
          -4.6032132, 
          55.5069554
        ]
      }, 
      "type": "Feature", 
      "properties": {
        "url": "https://southayrshire.foodbank.org.uk", 
        "name": "South Ayrshire"
      }
    }, 
    {
      "geometry": {
        "type": "Point", 
        "coordinates": [
          -0.171472, 
          52.319712
        ]
      }, 
      "type": "Feature", 
      "properties": {
        "url": "https://godmanchester.foodbank.org.uk", 
        "name": "Godmanchester"
      }
    }, 
    {
      "geometry": {
        "type": "Point", 
        "coordinates": [
          0.1517421, 
          52.23180869999999
        ]
      }, 
      "type": "Feature", 
      "properties": {
        "url": "https://cambridgecity.foodbank.org.uk", 
        "name": "Cambridge City"
      }
    }, 
    {
      "geometry": {
        "type": "Point", 
        "coordinates": [
          -1.5442295, 
          54.9737333
        ]
      }, 
      "type": "Feature", 
      "properties": {
        "url": "https://walkerdistrict.foodbank.org.uk", 
        "name": "Walker & District"
      }
    }, 
    {
      "geometry": {
        "type": "Point", 
        "coordinates": [
          0.0557058, 
          51.5158844
        ]
      }, 
      "type": "Feature", 
      "properties": {
        "url": "https://newham.foodbank.org.uk/", 
        "name": "Newham"
      }
    }, 
    {
      "geometry": {
        "type": "Point", 
        "coordinates": [
          0.2524541, 
          52.0194726
        ]
      }, 
      "type": "Feature", 
      "properties": {
        "url": "https://uttlesford.foodbank.org.uk/give-help/donate-food/", 
        "name": "Uttlesford"
      }
    }, 
    {
      "geometry": {
        "type": "Point", 
        "coordinates": [
          -2.1441163, 
          53.4799176
        ]
      }, 
      "type": "Feature", 
      "properties": {
        "url": "https://droylsdendistrict.foodbank.org.uk", 
        "name": "Droylsden and District"
      }
    }, 
    {
      "geometry": {
        "type": "Point", 
        "coordinates": [
          -5.70515, 
          54.5992872
        ]
      }, 
      "type": "Feature", 
      "properties": {
        "url": "https://newtownards.foodbank.org.uk/", 
        "name": "Newtownards"
      }
    }, 
    {
      "geometry": {
        "type": "Point", 
        "coordinates": [
          -0.0217225, 
          51.5876496
        ]
      }, 
      "type": "Feature", 
      "properties": {
        "url": "https://www.rukhsanakhanfoundation.org", 
        "name": "Rukhsana Khan Foundation"
      }
    }, 
    {
      "geometry": {
        "type": "Point", 
        "coordinates": [
          -1.4454877, 
          53.3442795
        ]
      }, 
      "type": "Feature", 
      "properties": {
        "url": "https://gleadlessvalley.foodbank.org.uk", 
        "name": "Gleadless Valley"
      }
    }, 
    {
      "geometry": {
        "type": "Point", 
        "coordinates": [
          -0.3027778, 
          51.7491667
        ]
      }, 
      "type": "Feature", 
      "properties": {
        "url": "https://www.thevineyardchurch.co.uk/feed", 
        "name": "FEED"
      }
    }, 
    {
      "geometry": {
        "type": "Point", 
        "coordinates": [
          -4.810945300000001, 
          55.6437638
        ]
      }, 
      "type": "Feature", 
      "properties": {
        "url": "https://northayrshire.foodbank.org.uk", 
        "name": "North Ayrshire"
      }
    }, 
    {
      "geometry": {
        "type": "Point", 
        "coordinates": [
          -2.4230976, 
          52.0368072
        ]
      }, 
      "type": "Feature", 
      "properties": {
        "url": "http://www.ledburyfoodbank.org/", 
        "name": "Ledbury"
      }
    }, 
    {
      "geometry": {
        "type": "Point", 
        "coordinates": [
          -0.8243686, 
          51.817021
        ]
      }, 
      "type": "Feature", 
      "properties": {
        "url": "https://aylesburyvineyard.church/storehouse", 
        "name": "Aylesbury Vineyard Storehouse"
      }
    }, 
    {
      "geometry": {
        "type": "Point", 
        "coordinates": [
          0.7400926, 
          52.4046147
        ]
      }, 
      "type": "Feature", 
      "properties": {
        "url": "https://thetford.foodbank.org.uk", 
        "name": "Thetford"
      }
    }, 
    {
      "geometry": {
        "type": "Point", 
        "coordinates": [
          -3.6240035, 
          51.7468088
        ]
      }, 
      "type": "Feature", 
      "properties": {
        "url": "https://valeofneath.foodbank.org.uk/", 
        "name": "Vale of Neath"
      }
    }, 
    {
      "geometry": {
        "type": "Point", 
        "coordinates": [
          -1.0704443, 
          53.78297509999999
        ]
      }, 
      "type": "Feature", 
      "properties": {
        "url": "https://selbydistrict.foodbank.org.uk/", 
        "name": "Selby & District"
      }
    }, 
    {
      "geometry": {
        "type": "Point", 
        "coordinates": [
          -0.9391933000000001, 
          51.0065771
        ]
      }, 
      "type": "Feature", 
      "properties": {
        "url": "http://www.pact.org.uk/pact_food_store.asp", 
        "name": "PACT"
      }
    }, 
    {
      "geometry": {
        "type": "Point", 
        "coordinates": [
          -3.208118, 
          51.797152
        ]
      }, 
      "type": "Feature", 
      "properties": {
        "url": "https://blaenaugwent.foodbank.org.uk", 
        "name": "Blaenau Gwent"
      }
    }, 
    {
      "geometry": {
        "type": "Point", 
        "coordinates": [
          -6.4140462, 
          54.4535662
        ]
      }, 
      "type": "Feature", 
      "properties": {
        "url": "https://craigavonarea.foodbank.org.uk", 
        "name": "Craigavon Area"
      }
    }, 
    {
      "geometry": {
        "type": "Point", 
        "coordinates": [
          -1.8204106, 
          51.5620475
        ]
      }, 
      "type": "Feature", 
      "properties": {
        "url": "https://www.swindonfoodcollective.org", 
        "name": "Swindon"
      }
    }, 
    {
      "geometry": {
        "type": "Point", 
        "coordinates": [
          -2.9616502, 
          50.8728056
        ]
      }, 
      "type": "Feature", 
      "properties": {
        "url": "http://lordslarder.chardct.org.uk/", 
        "name": "Chard"
      }
    }, 
    {
      "geometry": {
        "type": "Point", 
        "coordinates": [
          -4.1545311, 
          51.6799091
        ]
      }, 
      "type": "Feature", 
      "properties": {
        "url": "https://llanelli.foodbank.org.uk", 
        "name": "Llanelli"
      }
    }, 
    {
      "geometry": {
        "type": "Point", 
        "coordinates": [
          -3.0710965, 
          50.7057121
        ]
      }, 
      "type": "Feature", 
      "properties": {
        "url": "https://seatonurc.wordpress.com/seaton-food-bank/", 
        "name": "Seaton"
      }
    }, 
    {
      "geometry": {
        "type": "Point", 
        "coordinates": [
          -1.3253897, 
          51.4020143
        ]
      }, 
      "type": "Feature", 
      "properties": {
        "url": "https://westberks.foodbank.org.uk", 
        "name": "West Berks"
      }
    }, 
    {
      "geometry": {
        "type": "Point", 
        "coordinates": [
          -3.003052, 
          51.60288620000001
        ]
      }, 
      "type": "Feature", 
      "properties": {
        "url": "https://newport.foodbank.org.uk/", 
        "name": "Newport"
      }
    }, 
    {
      "geometry": {
        "type": "Point", 
        "coordinates": [
          0.6823189, 
          51.7292211
        ]
      }, 
      "type": "Feature", 
      "properties": {
        "url": "http://elimmaldon.org.uk/maldon-food-pantry/", 
        "name": "Elim Maldon"
      }
    }, 
    {
      "geometry": {
        "type": "Point", 
        "coordinates": [
          -1.4359608, 
          54.34063159999999
        ]
      }, 
      "type": "Feature", 
      "properties": {
        "url": "https://hambletonfoodshare.org.uk/", 
        "name": "Hambleton Foodshare"
      }
    }, 
    {
      "geometry": {
        "type": "Point", 
        "coordinates": [
          -3.2228165, 
          51.5738016
        ]
      }, 
      "type": "Feature", 
      "properties": {
        "url": "https://caerphilly.foodbank.org.uk/", 
        "name": "Caerphilly"
      }
    }, 
    {
      "geometry": {
        "type": "Point", 
        "coordinates": [
          -2.6598064, 
          56.732372
        ]
      }, 
      "type": "Feature", 
      "properties": {
        "url": "https://www.brechincommunitypantry.com", 
        "name": "Brechin Community Pantry"
      }
    }, 
    {
      "geometry": {
        "type": "Point", 
        "coordinates": [
          -1.9104446, 
          52.48188
        ]
      }, 
      "type": "Feature", 
      "properties": {
        "url": "https://birminghamcentral.foodbank.org.uk/", 
        "name": "Birmingham Central"
      }
    }, 
    {
      "geometry": {
        "type": "Point", 
        "coordinates": [
          -4.1543097, 
          50.3707091
        ]
      }, 
      "type": "Feature", 
      "properties": {
        "url": "https://plymouth.foodbank.org.uk", 
        "name": "Plymouth"
      }
    }, 
    {
      "geometry": {
        "type": "Point", 
        "coordinates": [
          -2.892556, 
          54.0469971
        ]
      }, 
      "type": "Feature", 
      "properties": {
        "url": "http://www.westendimpact.org.uk/", 
        "name": "West End Impact"
      }
    }, 
    {
      "geometry": {
        "type": "Point", 
        "coordinates": [
          -4.35354, 
          50.81119
        ]
      }, 
      "type": "Feature", 
      "properties": {
        "url": "http://holsworthyfoodbank.btck.co.uk", 
        "name": "Holsworthy"
      }
    }, 
    {
      "geometry": {
        "type": "Point", 
        "coordinates": [
          -0.1137402, 
          51.59974589999999
        ]
      }, 
      "type": "Feature", 
      "properties": {
        "url": "https://www.boundsgreenfoodbank.org/", 
        "name": "Bounds Green"
      }
    }, 
    {
      "geometry": {
        "type": "Point", 
        "coordinates": [
          -0.123229, 
          51.5710884
        ]
      }, 
      "type": "Feature", 
      "properties": {
        "url": "https://thehivefoodbank.com", 
        "name": "The Hive"
      }
    }, 
    {
      "geometry": {
        "type": "Point", 
        "coordinates": [
          -2.7488981, 
          54.3259506
        ]
      }, 
      "type": "Feature", 
      "properties": {
        "url": "https://kingsfoodbank.org.uk/", 
        "name": "Kings"
      }
    }, 
    {
      "geometry": {
        "type": "Point", 
        "coordinates": [
          -0.5341334999999999, 
          53.2291493
        ]
      }, 
      "type": "Feature", 
      "properties": {
        "url": "http://www.lincolnlarder.co.uk", 
        "name": "Lincoln Community Larder"
      }
    }, 
    {
      "geometry": {
        "type": "Point", 
        "coordinates": [
          -3.1537532, 
          51.4766009
        ]
      }, 
      "type": "Feature", 
      "properties": {
        "url": "https://cardiff.foodbank.org.uk", 
        "name": "Cardiff"
      }
    }, 
    {
      "geometry": {
        "type": "Point", 
        "coordinates": [
          -1.1695981, 
          52.9630738
        ]
      }, 
      "type": "Feature", 
      "properties": {
        "url": "https://www.himmah.co.uk/himmah-food-bank", 
        "name": "Himmah"
      }
    }, 
    {
      "geometry": {
        "type": "Point", 
        "coordinates": [
          0.16031, 
          51.86846540000001
        ]
      }, 
      "type": "Feature", 
      "properties": {
        "url": "https://www.bishopsstortfordfoodbank.com", 
        "name": "Bishop's Stortford"
      }
    }, 
    {
      "geometry": {
        "type": "Point", 
        "coordinates": [
          -2.2315115, 
          53.46471349999999
        ]
      }, 
      "type": "Feature", 
      "properties": {
        "url": "https://manchestercentral.foodbank.org.uk", 
        "name": "Manchester Central"
      }
    }, 
    {
      "geometry": {
        "type": "Point", 
        "coordinates": [
          -1.9721693, 
          52.4949136
        ]
      }, 
      "type": "Feature", 
      "properties": {
        "url": "https://smethwick.foodbank.org.uk", 
        "name": "Smethwick"
      }
    }, 
    {
      "geometry": {
        "type": "Point", 
        "coordinates": [
          -2.9328353, 
          53.43398269999999
        ]
      }, 
      "type": "Feature", 
      "properties": {
        "url": "https://northliverpool.foodbank.org.uk", 
        "name": "North Liverpool"
      }
    }, 
    {
      "geometry": {
        "type": "Point", 
        "coordinates": [
          -3.5752546, 
          55.9066524
        ]
      }, 
      "type": "Feature", 
      "properties": {
        "url": "https://westlothian.foodbank.org.uk", 
        "name": "West Lothian"
      }
    }, 
    {
      "geometry": {
        "type": "Point", 
        "coordinates": [
          -2.8640145, 
          51.43443449999999
        ]
      }, 
      "type": "Feature", 
      "properties": {
        "url": "https://clevedondistrict.foodbank.org.uk", 
        "name": "Clevedon District"
      }
    }, 
    {
      "geometry": {
        "type": "Point", 
        "coordinates": [
          -0.238786, 
          51.601445
        ]
      }, 
      "type": "Feature", 
      "properties": {
        "url": "https://colindale.foodbank.org.uk/", 
        "name": "Colindale"
      }
    }, 
    {
      "geometry": {
        "type": "Point", 
        "coordinates": [
          -2.4785679, 
          51.00605220000001
        ]
      }, 
      "type": "Feature", 
      "properties": {
        "url": "https://www.sherbornefoodbank.org", 
        "name": "Sherborne"
      }
    }, 
    {
      "geometry": {
        "type": "Point", 
        "coordinates": [
          0.1955545, 
          51.28326370000001
        ]
      }, 
      "type": "Feature", 
      "properties": {
        "url": "https://stjtb.com/people-groups/loaves-fishes/", 
        "name": "Sevenoaks"
      }
    }, 
    {
      "geometry": {
        "type": "Point", 
        "coordinates": [
          -0.0725467, 
          51.5872187
        ]
      }, 
      "type": "Feature", 
      "properties": {
        "url": "https://tottenham.foodbank.org.uk", 
        "name": "Tottenham"
      }
    }, 
    {
      "geometry": {
        "type": "Point", 
        "coordinates": [
          -0.4042092, 
          51.4539528
        ]
      }, 
      "type": "Feature", 
      "properties": {
        "url": "https://felthamfoodbank.org", 
        "name": "Feltham"
      }
    }, 
    {
      "geometry": {
        "type": "Point", 
        "coordinates": [
          -1.938468, 
          52.758204
        ]
      }, 
      "type": "Feature", 
      "properties": {
        "url": "https://rugeley.foodbank.org.uk", 
        "name": "Rugeley"
      }
    }, 
    {
      "geometry": {
        "type": "Point", 
        "coordinates": [
          -0.0443393, 
          51.4429457
        ]
      }, 
      "type": "Feature", 
      "properties": {
        "url": "https://lewisham.foodbank.org.uk", 
        "name": "Lewisham"
      }
    }, 
    {
      "geometry": {
        "type": "Point", 
        "coordinates": [
          -2.443731, 
          50.560669
        ]
      }, 
      "type": "Feature", 
      "properties": {
        "url": "http://portlandfoodbank.co.uk", 
        "name": "Portland"
      }
    }, 
    {
      "geometry": {
        "type": "Point", 
        "coordinates": [
          0.5639101, 
          51.8764468
        ]
      }, 
      "type": "Feature", 
      "properties": {
        "url": "https://braintreearea.foodbank.org.uk", 
        "name": "Braintree Area"
      }
    }, 
    {
      "geometry": {
        "type": "Point", 
        "coordinates": [
          -0.5367136, 
          50.8083426
        ]
      }, 
      "type": "Feature", 
      "properties": {
        "url": "https://littlehamptondistrict.foodbank.org.uk", 
        "name": "Littlehampton & District"
      }
    }, 
    {
      "geometry": {
        "type": "Point", 
        "coordinates": [
          -0.0697846, 
          53.5646531
        ]
      }, 
      "type": "Feature", 
      "properties": {
        "url": "http://www.mydoorstep.org.uk/what-we-do/food-bank/", 
        "name": "Doorstep"
      }
    }, 
    {
      "geometry": {
        "type": "Point", 
        "coordinates": [
          0.4558437, 
          51.5233832
        ]
      }, 
      "type": "Feature", 
      "properties": {
        "url": "https://thurrock.foodbank.org.uk", 
        "name": "Thurrock"
      }
    }, 
    {
      "geometry": {
        "type": "Point", 
        "coordinates": [
          -3.0520168, 
          52.8618061
        ]
      }, 
      "type": "Feature", 
      "properties": {
        "url": "https://oswestryandborders.foodbank.org.uk", 
        "name": "Oswestry and Borders"
      }
    }, 
    {
      "geometry": {
        "type": "Point", 
        "coordinates": [
          -3.384312, 
          51.7619268
        ]
      }, 
      "type": "Feature", 
      "properties": {
        "url": "https://merthyrcynon.foodbank.org.uk", 
        "name": "Merthyr Cynon"
      }
    }, 
    {
      "geometry": {
        "type": "Point", 
        "coordinates": [
          -1.1262426, 
          53.52393499999999
        ]
      }, 
      "type": "Feature", 
      "properties": {
        "url": "https://doncaster.foodbank.org.uk", 
        "name": "Doncaster"
      }
    }, 
    {
      "geometry": {
        "type": "Point", 
        "coordinates": [
          -0.1904887, 
          51.4689184
        ]
      }, 
      "type": "Feature", 
      "properties": {
        "url": "https://hammersmithfulham.foodbank.org.uk", 
        "name": "Hammersmith & Fulham"
      }
    }, 
    {
      "geometry": {
        "type": "Point", 
        "coordinates": [
          -2.439082, 
          53.189173
        ]
      }, 
      "type": "Feature", 
      "properties": {
        "url": "https://middlewichdistrict.foodbank.org.uk", 
        "name": "Middlewich & District"
      }
    }, 
    {
      "geometry": {
        "type": "Point", 
        "coordinates": [
          0.1611676, 
          51.0530571
        ]
      }, 
      "type": "Feature", 
      "properties": {
        "url": "https://crowborough.foodbank.org.uk", 
        "name": "Crowborough"
      }
    }, 
    {
      "geometry": {
        "type": "Point", 
        "coordinates": [
          -1.3877352, 
          52.5440641
        ]
      }, 
      "type": "Feature", 
      "properties": {
        "url": "https://hinckleyarea.foodbank.org.uk", 
        "name": "Hinckley Area"
      }
    }, 
    {
      "geometry": {
        "type": "Point", 
        "coordinates": [
          0.3937462, 
          52.7509214
        ]
      }, 
      "type": "Feature", 
      "properties": {
        "url": "https://kingslynn.foodbank.org.uk", 
        "name": "King's Lynn"
      }
    }, 
    {
      "geometry": {
        "type": "Point", 
        "coordinates": [
          -5.5421035, 
          50.1282967
        ]
      }, 
      "type": "Feature", 
      "properties": {
        "url": "https://www.foodforfamiliespenzance.co.uk/volunteer-support-food-bank-penzanc", 
        "name": "Food For Families Penzance"
      }
    }, 
    {
      "geometry": {
        "type": "Point", 
        "coordinates": [
          -0.1725485, 
          51.36288649999999
        ]
      }, 
      "type": "Feature", 
      "properties": {
        "url": "https://sutton.foodbank.org.uk/", 
        "name": "Sutton"
      }
    }, 
    {
      "geometry": {
        "type": "Point", 
        "coordinates": [
          -0.7749999999999999, 
          53.3999087
        ]
      }, 
      "type": "Feature", 
      "properties": {
        "url": "https://www.facebook.com/GainsFoodBank/", 
        "name": "Gainsborough"
      }
    }, 
    {
      "geometry": {
        "type": "Point", 
        "coordinates": [
          -0.5049049999999999, 
          51.3910198
        ]
      }, 
      "type": "Feature", 
      "properties": {
        "url": "https://runnymede.foodbank.org.uk", 
        "name": "Runnymede"
      }
    }, 
    {
      "geometry": {
        "type": "Point", 
        "coordinates": [
          -2.3140155, 
          53.4449015
        ]
      }, 
      "type": "Feature", 
      "properties": {
        "url": "https://stretford.foodbank.org.uk", 
        "name": "Stretford"
      }
    }, 
    {
      "geometry": {
        "type": "Point", 
        "coordinates": [
          -0.2817604, 
          51.3818117
        ]
      }, 
      "type": "Feature", 
      "properties": {
        "url": "https://kingston.foodbank.org.uk", 
        "name": "Kingston"
      }
    }, 
    {
      "geometry": {
        "type": "Point", 
        "coordinates": [
          -2.3716413, 
          57.2770753
        ]
      }, 
      "type": "Feature", 
      "properties": {
        "url": "https://aberdeenshirenorth.foodbank.org.uk", 
        "name": "Aberdeenshire North"
      }
    }, 
    {
      "geometry": {
        "type": "Point", 
        "coordinates": [
          -5.0342118, 
          51.7129966
        ]
      }, 
      "type": "Feature", 
      "properties": {
        "url": "http://patchcharity.org.uk", 
        "name": "PATCH"
      }
    }, 
    {
      "geometry": {
        "type": "Point", 
        "coordinates": [
          -0.4824201999999999, 
          51.5445377
        ]
      }, 
      "type": "Feature", 
      "properties": {
        "url": "https://hillingdon.foodbank.org.uk", 
        "name": "Hillingdon"
      }
    }, 
    {
      "geometry": {
        "type": "Point", 
        "coordinates": [
          -0.1314033, 
          51.5285006
        ]
      }, 
      "type": "Feature", 
      "properties": {
        "url": "https://euston.foodbank.org.uk", 
        "name": "Euston"
      }
    }, 
    {
      "geometry": {
        "type": "Point", 
        "coordinates": [
          -3.803733, 
          51.66214069999999
        ]
      }, 
      "type": "Feature", 
      "properties": {
        "url": "https://neath.foodbank.org.uk", 
        "name": "Neath"
      }
    }, 
    {
      "geometry": {
        "type": "Point", 
        "coordinates": [
          -4.3020594, 
          55.849669
        ]
      }, 
      "type": "Feature", 
      "properties": {
        "url": "https://glasgowsw.foodbank.org.uk", 
        "name": "Glasgow SW"
      }
    }, 
    {
      "geometry": {
        "type": "Point", 
        "coordinates": [
          -2.7116404, 
          52.0585685
        ]
      }, 
      "type": "Feature", 
      "properties": {
        "url": "https://herefordfoodbank.co.uk", 
        "name": "Hereford"
      }
    }, 
    {
      "geometry": {
        "type": "Point", 
        "coordinates": [
          -6.218284300000001, 
          54.7144973
        ]
      }, 
      "type": "Feature", 
      "properties": {
        "url": "https://antrim.foodbank.org.uk", 
        "name": "Antrim"
      }
    }, 
    {
      "geometry": {
        "type": "Point", 
        "coordinates": [
          -0.3036111, 
          51.4575
        ]
      }, 
      "type": "Feature", 
      "properties": {
        "url": "https://richmond.foodbank.org.uk", 
        "name": "Richmond"
      }
    }, 
    {
      "geometry": {
        "type": "Point", 
        "coordinates": [
          -2.0081512, 
          55.7730684
        ]
      }, 
      "type": "Feature", 
      "properties": {
        "url": "https://berwicktrust.org.uk/food-bank/", 
        "name": "Berwick"
      }
    }, 
    {
      "geometry": {
        "type": "Point", 
        "coordinates": [
          -0.9866189, 
          52.1293859
        ]
      }, 
      "type": "Feature", 
      "properties": {
        "url": "https://towcester.foodbank.org.uk", 
        "name": "Towcester"
      }
    }, 
    {
      "geometry": {
        "type": "Point", 
        "coordinates": [
          -0.29104, 
          52.210893
        ]
      }, 
      "type": "Feature", 
      "properties": {
        "url": "https://stneots.foodbank.org.uk/", 
        "name": "St Neots"
      }
    }, 
    {
      "geometry": {
        "type": "Point", 
        "coordinates": [
          -1.2614347, 
          52.9349593
        ]
      }, 
      "type": "Feature", 
      "properties": {
        "url": "http://www.havencentre.co", 
        "name": "Haven Centre"
      }
    }, 
    {
      "geometry": {
        "type": "Point", 
        "coordinates": [
          -1.9682499, 
          52.62842149999999
        ]
      }, 
      "type": "Feature", 
      "properties": {
        "url": "https://walsallnorth.foodbank.org.uk/", 
        "name": "Walsall North"
      }
    }, 
    {
      "geometry": {
        "type": "Point", 
        "coordinates": [
          0.2620199, 
          52.4009565
        ]
      }, 
      "type": "Feature", 
      "properties": {
        "url": "https://ely.foodbank.org.uk", 
        "name": "Ely"
      }
    }, 
    {
      "geometry": {
        "type": "Point", 
        "coordinates": [
          -1.4667031, 
          52.907944
        ]
      }, 
      "type": "Feature", 
      "properties": {
        "url": "https://www.derbycitymission.org.uk/foodbank", 
        "name": "Derby City Mission"
      }
    }, 
    {
      "geometry": {
        "type": "Point", 
        "coordinates": [
          -1.2646861, 
          52.3761675
        ]
      }, 
      "type": "Feature", 
      "properties": {
        "url": "https://rugby.foodbank.org.uk", 
        "name": "Rugby"
      }
    }, 
    {
      "geometry": {
        "type": "Point", 
        "coordinates": [
          -6.2587519, 
          55.199627
        ]
      }, 
      "type": "Feature", 
      "properties": {
        "url": "https://ballycastle.foodbank.org.uk", 
        "name": "Ballycastle"
      }
    }, 
    {
      "geometry": {
        "type": "Point", 
        "coordinates": [
          -0.1404591, 
          51.5371453
        ]
      }, 
      "type": "Feature", 
      "properties": {
        "url": "https://camden.foodbank.org.uk", 
        "name": "Camden"
      }
    }, 
    {
      "geometry": {
        "type": "Point", 
        "coordinates": [
          -4.151128, 
          55.776864
        ]
      }, 
      "type": "Feature", 
      "properties": {
        "url": "https://www.calderwoodbaptist.co.uk/Groups/270462/Food_Bank.aspx", 
        "name": "EK Community"
      }
    }, 
    {
      "geometry": {
        "type": "Point", 
        "coordinates": [
          -4.8373431, 
          50.5167024
        ]
      }, 
      "type": "Feature", 
      "properties": {
        "url": "https://www.wadebridgefoodbank.org", 
        "name": "Wadebridge"
      }
    }, 
    {
      "geometry": {
        "type": "Point", 
        "coordinates": [
          -4.0583913, 
          52.7241845
        ]
      }, 
      "type": "Feature", 
      "properties": {
        "url": "https://southgwynedd.foodbank.org.uk", 
        "name": "South Gwynedd"
      }
    }, 
    {
      "geometry": {
        "type": "Point", 
        "coordinates": [
          -1.4594388, 
          50.9177449
        ]
      }, 
      "type": "Feature", 
      "properties": {
        "url": "https://southamptoncitymission.co.uk/basics-banks/food-banks", 
        "name": "Southampton Basics Bank"
      }
    }, 
    {
      "geometry": {
        "type": "Point", 
        "coordinates": [
          -4.5735445, 
          55.9448642
        ]
      }, 
      "type": "Feature", 
      "properties": {
        "url": "https://westdunbartonshirecommunityfoodshare.co.uk/", 
        "name": "West Dunbartonshire Community Foodshare"
      }
    }, 
    {
      "geometry": {
        "type": "Point", 
        "coordinates": [
          -3.4920537, 
          53.3209984
        ]
      }, 
      "type": "Feature", 
      "properties": {
        "url": "https://rhyl.foodbank.org.uk", 
        "name": "Rhyl"
      }
    }, 
    {
      "geometry": {
        "type": "Point", 
        "coordinates": [
          -5.8875867, 
          54.5979329
        ]
      }, 
      "type": "Feature", 
      "properties": {
        "url": "https://balcproject.org.uk/walk-inn-foodbank/", 
        "name": "Walk INN"
      }
    }, 
    {
      "geometry": {
        "type": "Point", 
        "coordinates": [
          0.0578639, 
          51.4504283
        ]
      }, 
      "type": "Feature", 
      "properties": {
        "url": "https://www.ceyp.org/", 
        "name": "CEYP"
      }
    }, 
    {
      "geometry": {
        "type": "Point", 
        "coordinates": [
          0.7443917999999999, 
          51.3387033
        ]
      }, 
      "type": "Feature", 
      "properties": {
        "url": "https://swale.foodbank.org.uk", 
        "name": "Swale"
      }
    }, 
    {
      "geometry": {
        "type": "Point", 
        "coordinates": [
          -3.3886905, 
          51.5262125
        ]
      }, 
      "type": "Feature", 
      "properties": {
        "url": "https://taffely.foodbank.org.uk/give-help/donate-food/", 
        "name": "Taff-Ely"
      }
    }, 
    {
      "geometry": {
        "type": "Point", 
        "coordinates": [
          -4.2615877, 
          55.86626709999999
        ]
      }, 
      "type": "Feature", 
      "properties": {
        "url": "https://www.cwin.org.uk/services/food-security-programme/", 
        "name": "Central and West Integration Network"
      }
    }, 
    {
      "geometry": {
        "type": "Point", 
        "coordinates": [
          -0.7206287, 
          52.4862494
        ]
      }, 
      "type": "Feature", 
      "properties": {
        "url": "https://corby.foodbank.org.uk", 
        "name": "Corby"
      }
    }, 
    {
      "geometry": {
        "type": "Point", 
        "coordinates": [
          -1.5106201, 
          54.9754382
        ]
      }, 
      "type": "Feature", 
      "properties": {
        "url": "https://hebburnhelps.co.uk", 
        "name": "Hebburn Helps"
      }
    }, 
    {
      "geometry": {
        "type": "Point", 
        "coordinates": [
          -0.1893605, 
          51.500811
        ]
      }, 
      "type": "Feature", 
      "properties": {
        "url": "https://www.dadshouse.org.uk/", 
        "name": "Dad's House"
      }
    }, 
    {
      "geometry": {
        "type": "Point", 
        "coordinates": [
          -1.08432, 
          50.793674
        ]
      }, 
      "type": "Feature", 
      "properties": {
        "url": "https://portsmouth.foodbank.org.uk", 
        "name": "Portsmouth"
      }
    }, 
    {
      "geometry": {
        "type": "Point", 
        "coordinates": [
          -0.8397549, 
          51.2738835
        ]
      }, 
      "type": "Feature", 
      "properties": {
        "url": "https://hart.foodbank.org.uk", 
        "name": "Hart"
      }
    }, 
    {
      "geometry": {
        "type": "Point", 
        "coordinates": [
          0.2603064, 
          50.8622879
        ]
      }, 
      "type": "Feature", 
      "properties": {
        "url": "https://hailsham.foodbank.org.uk", 
        "name": "Hailsham"
      }
    }, 
    {
      "geometry": {
        "type": "Point", 
        "coordinates": [
          -0.3326282, 
          51.2325293
        ]
      }, 
      "type": "Feature", 
      "properties": {
        "url": "https://dorkingarea.foodbank.org.uk", 
        "name": "Dorking Area"
      }
    }, 
    {
      "geometry": {
        "type": "Point", 
        "coordinates": [
          -0.0360736, 
          51.719237
        ]
      }, 
      "type": "Feature", 
      "properties": {
        "url": "https://broxbourne.foodbank.org.uk", 
        "name": "Broxbourne"
      }
    }, 
    {
      "geometry": {
        "type": "Point", 
        "coordinates": [
          -4.451613, 
          55.86106359999999
        ]
      }, 
      "type": "Feature", 
      "properties": {
        "url": "https://renfrewshire.foodbank.org.uk", 
        "name": "Renfrewshire"
      }
    }, 
    {
      "geometry": {
        "type": "Point", 
        "coordinates": [
          -0.1702023, 
          51.4604982
        ]
      }, 
      "type": "Feature", 
      "properties": {
        "url": "https://wandsworth.foodbank.org.uk", 
        "name": "Wandsworth"
      }
    }, 
    {
      "geometry": {
        "type": "Point", 
        "coordinates": [
          -4.7613899, 
          55.950722
        ]
      }, 
      "type": "Feature", 
      "properties": {
        "url": "https://inverclyde.foodbank.org.uk/", 
        "name": "Inverclyde"
      }
    }, 
    {
      "geometry": {
        "type": "Point", 
        "coordinates": [
          -2.2502027, 
          52.38859679999999
        ]
      }, 
      "type": "Feature", 
      "properties": {
        "url": "https://kidderminster.foodbank.org.uk/", 
        "name": "Kidderminster"
      }
    }, 
    {
      "geometry": {
        "type": "Point", 
        "coordinates": [
          -2.6986143, 
          51.5009585
        ]
      }, 
      "type": "Feature", 
      "properties": {
        "url": "https://www.bristolnorthwestfoodbank.org.uk", 
        "name": "Bristol North West"
      }
    }, 
    {
      "geometry": {
        "type": "Point", 
        "coordinates": [
          -2.2769011, 
          53.4309911
        ]
      }, 
      "type": "Feature", 
      "properties": {
        "url": "https://chorltondidsbury.foodbank.org.uk", 
        "name": "Chorlton & Didsbury"
      }
    }, 
    {
      "geometry": {
        "type": "Point", 
        "coordinates": [
          -3.3927188, 
          51.9520007
        ]
      }, 
      "type": "Feature", 
      "properties": {
        "url": "https://brecon.foodbank.org.uk", 
        "name": "Brecon"
      }
    }, 
    {
      "geometry": {
        "type": "Point", 
        "coordinates": [
          -3.7778867, 
          50.2875506
        ]
      }, 
      "type": "Feature", 
      "properties": {
        "url": "http://www.kingsbridgefoodbank.org.uk", 
        "name": "Kingsbridge"
      }
    }, 
    {
      "geometry": {
        "type": "Point", 
        "coordinates": [
          1.1887518, 
          52.0312486
        ]
      }, 
      "type": "Feature", 
      "properties": {
        "url": "https://www.findipswich.org.uk/", 
        "name": "FIND (Ipswich)"
      }
    }, 
    {
      "geometry": {
        "type": "Point", 
        "coordinates": [
          -1.4115644, 
          53.7014818
        ]
      }, 
      "type": "Feature", 
      "properties": {
        "url": "https://normanton.foodbank.org.uk", 
        "name": "Normanton"
      }
    }, 
    {
      "geometry": {
        "type": "Point", 
        "coordinates": [
          -4.4660418, 
          50.4563913
        ]
      }, 
      "type": "Feature", 
      "properties": {
        "url": "https://liskeardlooe.foodbank.org.uk", 
        "name": "Liskeard & Looe"
      }
    }, 
    {
      "geometry": {
        "type": "Point", 
        "coordinates": [
          -1.4676806, 
          55.0018375
        ]
      }, 
      "type": "Feature", 
      "properties": {
        "url": "http://thebayfoodbank.org.uk/", 
        "name": "BAY"
      }
    }, 
    {
      "geometry": {
        "type": "Point", 
        "coordinates": [
          0.3926849, 
          51.4352302
        ]
      }, 
      "type": "Feature", 
      "properties": {
        "url": "https://gravesham.foodbank.org.uk", 
        "name": "Gravesham"
      }
    }, 
    {
      "geometry": {
        "type": "Point", 
        "coordinates": [
          -2.408604, 
          53.45549459999999
        ]
      }, 
      "type": "Feature", 
      "properties": {
        "url": "https://irlamcadishead.foodbank.org.uk/", 
        "name": "Irlam and Cadishead"
      }
    }, 
    {
      "geometry": {
        "type": "Point", 
        "coordinates": [
          -5.9521367, 
          54.6843193
        ]
      }, 
      "type": "Feature", 
      "properties": {
        "url": "https://newtownabbey.foodbank.org.uk", 
        "name": "Newtownabbey"
      }
    }, 
    {
      "geometry": {
        "type": "Point", 
        "coordinates": [
          -5.0818445, 
          50.2624962
        ]
      }, 
      "type": "Feature", 
      "properties": {
        "url": "https://truro.foodbank.org.uk", 
        "name": "Truro"
      }
    }, 
    {
      "geometry": {
        "type": "Point", 
        "coordinates": [
          -1.3730243, 
          50.8185773
        ]
      }, 
      "type": "Feature", 
      "properties": {
        "url": "https://waterside.foodbank.org.uk", 
        "name": "Waterside"
      }
    }, 
    {
      "geometry": {
        "type": "Point", 
        "coordinates": [
          -2.4471458, 
          53.100646
        ]
      }, 
      "type": "Feature", 
      "properties": {
        "url": "http://stpaulscentre.org.uk/food-bank/", 
        "name": "St Paul's Pantry (Crewe)"
      }
    }, 
    {
      "geometry": {
        "type": "Point", 
        "coordinates": [
          -2.201735, 
          53.548664
        ]
      }, 
      "type": "Feature", 
      "properties": {
        "url": "https://middletoncentral.foodbank.org.uk/", 
        "name": "Middleton Central"
      }
    }, 
    {
      "geometry": {
        "type": "Point", 
        "coordinates": [
          -2.3916425, 
          53.87119209999999
        ]
      }, 
      "type": "Feature", 
      "properties": {
        "url": "https://ribblevalley.foodbank.org.uk", 
        "name": "Ribble Valley"
      }
    }, 
    {
      "geometry": {
        "type": "Point", 
        "coordinates": [
          -0.0487324, 
          51.4187458
        ]
      }, 
      "type": "Feature", 
      "properties": {
        "url": "https://www.livingwell.life/p/food-bank", 
        "name": "Living Well Bromley"
      }
    }, 
    {
      "geometry": {
        "type": "Point", 
        "coordinates": [
          -1.3409034, 
          53.1080182
        ]
      }, 
      "type": "Feature", 
      "properties": {
        "url": "https://southnormantonarea.foodbank.org.uk/", 
        "name": "South Normanton Area"
      }
    }, 
    {
      "geometry": {
        "type": "Point", 
        "coordinates": [
          -2.2080053, 
          53.4605352
        ]
      }, 
      "type": "Feature", 
      "properties": {
        "url": "http://ardwickandlongsightfoodbank.org.uk/", 
        "name": "Ardwick & Longsight"
      }
    }, 
    {
      "geometry": {
        "type": "Point", 
        "coordinates": [
          -3.5763325, 
          51.5026033
        ]
      }, 
      "type": "Feature", 
      "properties": {
        "url": "https://bridgend.foodbank.org.uk", 
        "name": "Bridgend"
      }
    }, 
    {
      "geometry": {
        "type": "Point", 
        "coordinates": [
          -1.8127833, 
          51.071943
        ]
      }, 
      "type": "Feature", 
      "properties": {
        "url": "https://salisbury.foodbank.org.uk", 
        "name": "Salisbury"
      }
    }, 
    {
      "geometry": {
        "type": "Point", 
        "coordinates": [
          -2.9986453, 
          53.6596988
        ]
      }, 
      "type": "Feature", 
      "properties": {
        "url": "https://southport.foodbank.org.uk", 
        "name": "Southport"
      }
    }, 
    {
      "geometry": {
        "type": "Point", 
        "coordinates": [
          -2.9758076, 
          51.221063
        ]
      }, 
      "type": "Feature", 
      "properties": {
        "url": "https://highbridgearea.foodbank.org.uk", 
        "name": "Highbridge Area"
      }
    }, 
    {
      "geometry": {
        "type": "Point", 
        "coordinates": [
          -1.1696496, 
          53.0049647
        ]
      }, 
      "type": "Feature", 
      "properties": {
        "url": "https://bestwoodbulwell.foodbank.org.uk", 
        "name": "Bestwood & Bulwell"
      }
    }, 
    {
      "geometry": {
        "type": "Point", 
        "coordinates": [
          -2.7463504, 
          52.7047712
        ]
      }, 
      "type": "Feature", 
      "properties": {
        "url": "https://www.barnabascommunityprojects.org/foodbank.html", 
        "name": "Shrewsbury"
      }
    }, 
    {
      "geometry": {
        "type": "Point", 
        "coordinates": [
          -1.14853, 
          52.2584685
        ]
      }, 
      "type": "Feature", 
      "properties": {
        "url": "http://www.daventryfoodbank.org.uk/", 
        "name": "Daventry"
      }
    }, 
    {
      "geometry": {
        "type": "Point", 
        "coordinates": [
          -1.5659634, 
          53.8028341
        ]
      }, 
      "type": "Feature", 
      "properties": {
        "url": "https://leedsnorthandwest.foodbank.org.uk", 
        "name": "Leeds North & West"
      }
    }, 
    {
      "geometry": {
        "type": "Point", 
        "coordinates": [
          -5.54136, 
          50.1286255
        ]
      }, 
      "type": "Feature", 
      "properties": {
        "url": "https://www.churchestogetherinpenzance.co.uk/ctipafoodbank.htm", 
        "name": "Penzance"
      }
    }, 
    {
      "geometry": {
        "type": "Point", 
        "coordinates": [
          -2.8926632, 
          53.3487091
        ]
      }, 
      "type": "Feature", 
      "properties": {
        "url": "https://www.facebook.com/orchardliverpool/", 
        "name": "The Orchard Liverpool"
      }
    }, 
    {
      "geometry": {
        "type": "Point", 
        "coordinates": [
          -0.138101, 
          51.49888499999999
        ]
      }, 
      "type": "Feature", 
      "properties": {
        "url": "https://www.westminsterchapel.org.uk/ministries/foodbank/", 
        "name": "Westminster"
      }
    }, 
    {
      "geometry": {
        "type": "Point", 
        "coordinates": [
          -3.1579156, 
          55.89835249999999
        ]
      }, 
      "type": "Feature", 
      "properties": {
        "url": "https://edinburghse.foodbank.org.uk", 
        "name": "Edinburgh SE"
      }
    }, 
    {
      "geometry": {
        "type": "Point", 
        "coordinates": [
          -0.6174978, 
          54.4871557
        ]
      }, 
      "type": "Feature", 
      "properties": {
        "url": "http://www.foodbank4whitby.org.uk", 
        "name": "Whitby"
      }
    }, 
    {
      "geometry": {
        "type": "Point", 
        "coordinates": [
          -1.0911414, 
          51.2626953
        ]
      }, 
      "type": "Feature", 
      "properties": {
        "url": "https://basingstoke.foodbank.org.uk", 
        "name": "Basingstoke"
      }
    }, 
    {
      "geometry": {
        "type": "Point", 
        "coordinates": [
          -0.1864695, 
          51.4402785
        ]
      }, 
      "type": "Feature", 
      "properties": {
        "url": "https://www.earlsfieldtogether.com/foodbank", 
        "name": "Earlsfield"
      }
    }, 
    {
      "geometry": {
        "type": "Point", 
        "coordinates": [
          1.2547852, 
          52.635319
        ]
      }, 
      "type": "Feature", 
      "properties": {
        "url": "https://www.networknorwich.co.uk/Group/Group.aspx?ID=109369", 
        "name": "Norwich"
      }
    }, 
    {
      "geometry": {
        "type": "Point", 
        "coordinates": [
          -5.8333355, 
          54.72484919999999
        ]
      }, 
      "type": "Feature", 
      "properties": {
        "url": "https://carrickfergus.foodbank.org.uk/", 
        "name": "Carrickfergus"
      }
    }, 
    {
      "geometry": {
        "type": "Point", 
        "coordinates": [
          -0.4730141, 
          51.51316079999999
        ]
      }, 
      "type": "Feature", 
      "properties": {
        "url": "https://yiewsleywestdrayton.foodbank.org.uk", 
        "name": "Yiewsley & West Drayton"
      }
    }, 
    {
      "geometry": {
        "type": "Point", 
        "coordinates": [
          -0.2139442, 
          51.5150198
        ]
      }, 
      "type": "Feature", 
      "properties": {
        "url": "https://kensingtonchelsea.foodbank.org.uk", 
        "name": "Kensington & Chelsea"
      }
    }, 
    {
      "geometry": {
        "type": "Point", 
        "coordinates": [
          -1.7721299, 
          53.7343373
        ]
      }, 
      "type": "Feature", 
      "properties": {
        "url": "https://wyke.foodbank.org.uk/", 
        "name": "Wyke"
      }
    }, 
    {
      "geometry": {
        "type": "Point", 
        "coordinates": [
          -0.9785286, 
          51.1484812
        ]
      }, 
      "type": "Feature", 
      "properties": {
        "url": "https://alton.foodbank.org.uk", 
        "name": "Alton"
      }
    }, 
    {
      "geometry": {
        "type": "Point", 
        "coordinates": [
          -3.591804, 
          50.5255057
        ]
      }, 
      "type": "Feature", 
      "properties": {
        "url": "https://www.thatfoodbank.com/", 
        "name": "Teignbridge Homeless Action Today"
      }
    }, 
    {
      "geometry": {
        "type": "Point", 
        "coordinates": [
          -0.8518391, 
          51.8233485
        ]
      }, 
      "type": "Feature", 
      "properties": {
        "url": "https://aylesbury.foodbank.org.uk", 
        "name": "Aylesbury"
      }
    }, 
    {
      "geometry": {
        "type": "Point", 
        "coordinates": [
          -2.094537, 
          57.1543411
        ]
      }, 
      "type": "Feature", 
      "properties": {
        "url": "https://aberdeennorth.foodbank.org.uk", 
        "name": "Aberdeen North"
      }
    }, 
    {
      "geometry": {
        "type": "Point", 
        "coordinates": [
          -0.4735833, 
          52.1547418
        ]
      }, 
      "type": "Feature", 
      "properties": {
        "url": "https://bedford.foodbank.org.uk/", 
        "name": "Bedford"
      }
    }, 
    {
      "geometry": {
        "type": "Point", 
        "coordinates": [
          -1.3154357, 
          50.9123483
        ]
      }, 
      "type": "Feature", 
      "properties": {
        "url": "https://www.facebook.com/hedgeendfoodcentre/", 
        "name": "Hedge End"
      }
    }, 
    {
      "geometry": {
        "type": "Point", 
        "coordinates": [
          -1.2817066, 
          53.22318929999999
        ]
      }, 
      "type": "Feature", 
      "properties": {
        "url": "https://www.fcgroup.org.uk/project/food-bank/", 
        "name": "Freedom"
      }
    }, 
    {
      "geometry": {
        "type": "Point", 
        "coordinates": [
          -5.4174621, 
          50.189237
        ]
      }, 
      "type": "Feature", 
      "properties": {
        "url": "http://www.haylemethodist.co.uk/about-us/hayle-foodbank/", 
        "name": "Hayle"
      }
    }, 
    {
      "geometry": {
        "type": "Point", 
        "coordinates": [
          -4.7242533, 
          56.0021937
        ]
      }, 
      "type": "Feature", 
      "properties": {
        "url": "https://helensburghlomondfoodbank.org", 
        "name": "Helensburgh & Lomond"
      }
    }, 
    {
      "geometry": {
        "type": "Point", 
        "coordinates": [
          0.5352985, 
          51.3744138
        ]
      }, 
      "type": "Feature", 
      "properties": {
        "url": "https://www.helpingthehomeless.org.uk/medway", 
        "name": "One Big Family Kent"
      }
    }, 
    {
      "geometry": {
        "type": "Point", 
        "coordinates": [
          -1.7098245, 
          55.1842753
        ]
      }, 
      "type": "Feature", 
      "properties": {
        "url": "https://wansbeckvalleyfoodbank.org", 
        "name": "Wansbeck Valley"
      }
    }, 
    {
      "geometry": {
        "type": "Point", 
        "coordinates": [
          -2.9318556, 
          50.7254417
        ]
      }, 
      "type": "Feature", 
      "properties": {
        "url": "https://www.lymeforward.com/foodbank", 
        "name": "Lyme Regis"
      }
    }, 
    {
      "geometry": {
        "type": "Point", 
        "coordinates": [
          -3.697538, 
          55.969829
        ]
      }, 
      "type": "Feature", 
      "properties": {
        "url": "http://www.braesstorehouse.org.uk", 
        "name": "Braes Storehouse"
      }
    }, 
    {
      "geometry": {
        "type": "Point", 
        "coordinates": [
          -0.6461274, 
          52.9123952
        ]
      }, 
      "type": "Feature", 
      "properties": {
        "url": "http://granthamfoodbank.org.uk", 
        "name": "Grantham"
      }
    }, 
    {
      "geometry": {
        "type": "Point", 
        "coordinates": [
          -3.0371518, 
          53.4063675
        ]
      }, 
      "type": "Feature", 
      "properties": {
        "url": "https://wirral.foodbank.org.uk", 
        "name": "Wirral"
      }
    }, 
    {
      "geometry": {
        "type": "Point", 
        "coordinates": [
          -2.2975389, 
          53.6968428
        ]
      }, 
      "type": "Feature", 
      "properties": {
        "url": "http://www.raftfoundation.org", 
        "name": "The Raft Foundation"
      }
    }, 
    {
      "geometry": {
        "type": "Point", 
        "coordinates": [
          -0.7222221999999999, 
          52.4002778
        ]
      }, 
      "type": "Feature", 
      "properties": {
        "url": "https://www.ketteringfoodbank.org/", 
        "name": "Kettering"
      }
    }, 
    {
      "geometry": {
        "type": "Point", 
        "coordinates": [
          -3.8514288, 
          52.5888808
        ]
      }, 
      "type": "Feature", 
      "properties": {
        "url": "http://www.machynllethstpeters.co.uk/index.php/food-bank", 
        "name": "Banc Bwyd Bro Ddyfi"
      }
    }, 
    {
      "geometry": {
        "type": "Point", 
        "coordinates": [
          -3.3629449, 
          54.6607888
        ]
      }, 
      "type": "Feature", 
      "properties": {
        "url": "https://www.thefoodbank.org.uk/", 
        "name": "North Lakes"
      }
    }, 
    {
      "geometry": {
        "type": "Point", 
        "coordinates": [
          -1.3499452, 
          51.8293083
        ]
      }, 
      "type": "Feature", 
      "properties": {
        "url": "http://www.cefoxford.co.uk/", 
        "name": "Oxford CEF"
      }
    }, 
    {
      "geometry": {
        "type": "Point", 
        "coordinates": [
          -1.3709725, 
          54.9069246
        ]
      }, 
      "type": "Feature", 
      "properties": {
        "url": "https://sunderland.foodbank.org.uk", 
        "name": "Sunderland"
      }
    }, 
    {
      "geometry": {
        "type": "Point", 
        "coordinates": [
          1.7273647, 
          52.6046346
        ]
      }, 
      "type": "Feature", 
      "properties": {
        "url": "https://www.greatyarmouthfoodbank.co.uk", 
        "name": "Great Yarmouth"
      }
    }, 
    {
      "geometry": {
        "type": "Point", 
        "coordinates": [
          -0.4063291, 
          52.9940748
        ]
      }, 
      "type": "Feature", 
      "properties": {
        "url": "http://www.communitylarder.co.uk/", 
        "name": "Sleaford New Life Community Larder"
      }
    }, 
    {
      "geometry": {
        "type": "Point", 
        "coordinates": [
          -5.052152899999999, 
          55.836741
        ]
      }, 
      "type": "Feature", 
      "properties": {
        "url": "https://www.buteadvice.org.uk/foodbank", 
        "name": "Bute"
      }
    }, 
    {
      "geometry": {
        "type": "Point", 
        "coordinates": [
          0.6072919, 
          51.58384479999999
        ]
      }, 
      "type": "Feature", 
      "properties": {
        "url": "https://www.growthchurch.co.uk/growth-foodbank", 
        "name": "Growth Foodbank"
      }
    }, 
    {
      "geometry": {
        "type": "Point", 
        "coordinates": [
          0.0137282, 
          52.8027465
        ]
      }, 
      "type": "Feature", 
      "properties": {
        "url": "https://allsaintsholbeach.org.uk/community-larder/", 
        "name": "Holbeach Community Larder"
      }
    }, 
    {
      "geometry": {
        "type": "Point", 
        "coordinates": [
          -4.312886499999999, 
          55.8635545
        ]
      }, 
      "type": "Feature", 
      "properties": {
        "url": "https://www.govancommunityproject.org.uk/food-distribution.html", 
        "name": "Govan Community Project"
      }
    }, 
    {
      "geometry": {
        "type": "Point", 
        "coordinates": [
          -0.1182034, 
          51.5309658
        ]
      }, 
      "type": "Feature", 
      "properties": {
        "url": "https://www.kxc.org.uk/foodbank", 
        "name": "King's Cross"
      }
    }, 
    {
      "geometry": {
        "type": "Point", 
        "coordinates": [
          -3.4222086, 
          53.33619729999999
        ]
      }, 
      "type": "Feature", 
      "properties": {
        "url": "https://prestatynmeliden.foodbank.org.uk", 
        "name": "Prestatyn & Meliden"
      }
    }, 
    {
      "geometry": {
        "type": "Point", 
        "coordinates": [
          0.1794445, 
          51.7866474
        ]
      }, 
      "type": "Feature", 
      "properties": {
        "url": "http://mrct.org.uk/foodbank/", 
        "name": "Harlow"
      }
    }, 
    {
      "geometry": {
        "type": "Point", 
        "coordinates": [
          -1.510636, 
          52.1569891
        ]
      }, 
      "type": "Feature", 
      "properties": {
        "url": "https://fosse.foodbank.org.uk", 
        "name": "Fosse"
      }
    }, 
    {
      "geometry": {
        "type": "Point", 
        "coordinates": [
          -5.6673482, 
          54.6450101
        ]
      }, 
      "type": "Feature", 
      "properties": {
        "url": "https://bangorni.foodbank.org.uk", 
        "name": "Bangor NI"
      }
    }, 
    {
      "geometry": {
        "type": "Point", 
        "coordinates": [
          -3.0093518, 
          53.03679
        ]
      }, 
      "type": "Feature", 
      "properties": {
        "url": "https://wrexham.foodbank.org.uk", 
        "name": "Wrexham"
      }
    }, 
    {
      "geometry": {
        "type": "Point", 
        "coordinates": [
          -3.281812, 
          55.926822
        ]
      }, 
      "type": "Feature", 
      "properties": {
        "url": "https://edinburghnw.foodbank.org.uk", 
        "name": "Edinburgh NW"
      }
    }, 
    {
      "geometry": {
        "type": "Point", 
        "coordinates": [
          -3.9896772, 
          51.7916642
        ]
      }, 
      "type": "Feature", 
      "properties": {
        "url": "https://ammanford.foodbank.org.uk/", 
        "name": "Ammanford"
      }
    }, 
    {
      "geometry": {
        "type": "Point", 
        "coordinates": [
          -2.1225946, 
          52.4816464
        ]
      }, 
      "type": "Feature", 
      "properties": {
        "url": "https://www.blackcountryfoodbank.org.uk", 
        "name": "Black Country"
      }
    }, 
    {
      "geometry": {
        "type": "Point", 
        "coordinates": [
          -0.2032213, 
          51.9013555
        ]
      }, 
      "type": "Feature", 
      "properties": {
        "url": "https://stevenagecommunityfoodbank.org.uk/", 
        "name": "Stevenage Community"
      }
    }, 
    {
      "geometry": {
        "type": "Point", 
        "coordinates": [
          -1.2401012, 
          52.9540019
        ]
      }, 
      "type": "Feature", 
      "properties": {
        "url": "https://nottingham.foodbank.org.uk", 
        "name": "Nottingham"
      }
    }, 
    {
      "geometry": {
        "type": "Point", 
        "coordinates": [
          -2.2836204, 
          52.6370646
        ]
      }, 
      "type": "Feature", 
      "properties": {
        "url": "https://www.albrightonparishchurch.org.uk/albrightonfoodbank.htm", 
        "name": "Albrighton"
      }
    }, 
    {
      "geometry": {
        "type": "Point", 
        "coordinates": [
          -1.1462531, 
          52.64361599999999
        ]
      }, 
      "type": "Feature", 
      "properties": {
        "url": "https://tinyurl.com/woodgatefood", 
        "name": "Woodgate Community Food"
      }
    }, 
    {
      "geometry": {
        "type": "Point", 
        "coordinates": [
          -4.0331173, 
          55.7754176
        ]
      }, 
      "type": "Feature", 
      "properties": {
        "url": "https://hamiltondistrict.foodbank.org.uk", 
        "name": "Hamilton District"
      }
    }, 
    {
      "geometry": {
        "type": "Point", 
        "coordinates": [
          -2.4197887, 
          52.5337997
        ]
      }, 
      "type": "Feature", 
      "properties": {
        "url": "https://www.bridgnorthfoodbank.co.uk", 
        "name": "Bridgnorth"
      }
    }, 
    {
      "geometry": {
        "type": "Point", 
        "coordinates": [
          -2.25976, 
          53.4914694
        ]
      }, 
      "type": "Feature", 
      "properties": {
        "url": "https://salford.foodbank.org.uk", 
        "name": "Salford"
      }
    }, 
    {
      "geometry": {
        "type": "Point", 
        "coordinates": [
          -3.3912221, 
          50.8561022
        ]
      }, 
      "type": "Feature", 
      "properties": {
        "url": "https://standrewscullompton.com/getting-involved/serving-others/people-matter/", 
        "name": "People Matter"
      }
    }, 
    {
      "geometry": {
        "type": "Point", 
        "coordinates": [
          -2.7485325, 
          53.329767
        ]
      }, 
      "type": "Feature", 
      "properties": {
        "url": "https://runcorndistrict.foodbank.org.uk", 
        "name": "Runcorn District"
      }
    }, 
    {
      "geometry": {
        "type": "Point", 
        "coordinates": [
          -4.634007, 
          53.309576
        ]
      }, 
      "type": "Feature", 
      "properties": {
        "url": "https://anglesey.foodbank.org.uk", 
        "name": "Anglesey"
      }
    }, 
    {
      "geometry": {
        "type": "Point", 
        "coordinates": [
          -0.016626, 
          51.5287729
        ]
      }, 
      "type": "Feature", 
      "properties": {
        "url": "http://www.bowfoodbank.org/", 
        "name": "Bow"
      }
    }, 
    {
      "geometry": {
        "type": "Point", 
        "coordinates": [
          -0.8877626, 
          52.76613529999999
        ]
      }, 
      "type": "Feature", 
      "properties": {
        "url": "https://www.storehousemelton.org.uk", 
        "name": "Storehouse Melton"
      }
    }, 
    {
      "geometry": {
        "type": "Point", 
        "coordinates": [
          -3.2074721, 
          51.6669444
        ]
      }, 
      "type": "Feature", 
      "properties": {
        "url": "https://blackwooddistrict.foodbank.org.uk", 
        "name": "Blackwood & District"
      }
    }, 
    {
      "geometry": {
        "type": "Point", 
        "coordinates": [
          0.2311196, 
          51.5135329
        ]
      }, 
      "type": "Feature", 
      "properties": {
        "url": "https://rainham.foodbank.org.uk/", 
        "name": "Rainham"
      }
    }, 
    {
      "geometry": {
        "type": "Point", 
        "coordinates": [
          -1.193436, 
          53.1642308
        ]
      }, 
      "type": "Feature", 
      "properties": {
        "url": "https://sherwoodforest.foodbank.org.uk", 
        "name": "Sherwood Forest"
      }
    }, 
    {
      "geometry": {
        "type": "Point", 
        "coordinates": [
          -0.0669307, 
          51.5250773
        ]
      }, 
      "type": "Feature", 
      "properties": {
        "url": "http://st-matthews.org.uk/food-bank/", 
        "name": "Bethnal Green"
      }
    }, 
    {
      "geometry": {
        "type": "Point", 
        "coordinates": [
          -0.167459, 
          51.693319
        ]
      }, 
      "type": "Feature", 
      "properties": {
        "url": "https://pottersbar.foodbank.org.uk", 
        "name": "Potters Bar"
      }
    }, 
    {
      "geometry": {
        "type": "Point", 
        "coordinates": [
          0.5639737, 
          51.3791838
        ]
      }, 
      "type": "Feature", 
      "properties": {
        "url": "https://www.thestreet-angels.org", 
        "name": "Gillingham Street Angels"
      }
    }, 
    {
      "geometry": {
        "type": "Point", 
        "coordinates": [
          0.3266802, 
          51.4454132
        ]
      }, 
      "type": "Feature", 
      "properties": {
        "url": "http://www.hivehope.btck.co.uk/", 
        "name": "Northfleet Hive Hope"
      }
    }, 
    {
      "geometry": {
        "type": "Point", 
        "coordinates": [
          0.3923308, 
          52.2561773
        ]
      }, 
      "type": "Feature", 
      "properties": {
        "url": "https://newmarketopendoor.org.uk/foodbank", 
        "name": "Newmarket Open Door"
      }
    }, 
    {
      "geometry": {
        "type": "Point", 
        "coordinates": [
          -1.1374927, 
          52.96274099999999
        ]
      }, 
      "type": "Feature", 
      "properties": {
        "url": "https://stannsadvice.org.uk/", 
        "name": "St Annes Advice Nottingham"
      }
    }, 
    {
      "geometry": {
        "type": "Point", 
        "coordinates": [
          -5.9510637, 
          54.59968629999999
        ]
      }, 
      "type": "Feature", 
      "properties": {
        "url": "https://westbelfast.foodbank.org.uk", 
        "name": "Belfast West"
      }
    }, 
    {
      "geometry": {
        "type": "Point", 
        "coordinates": [
          -1.2834209, 
          51.82587909999999
        ]
      }, 
      "type": "Feature", 
      "properties": {
        "url": "http://www.northoxfordshirecommunityfoodbank.org.uk/", 
        "name": "North Oxfordshire"
      }
    }, 
    {
      "geometry": {
        "type": "Point", 
        "coordinates": [
          -0.1320025, 
          50.9564258
        ]
      }, 
      "type": "Feature", 
      "properties": {
        "url": "http://www.burgesshillfoodbank.org.uk/", 
        "name": "Burgess Hill"
      }
    }, 
    {
      "geometry": {
        "type": "Point", 
        "coordinates": [
          -3.9176682, 
          56.1146395
        ]
      }, 
      "type": "Feature", 
      "properties": {
        "url": "https://startupstirling.org.uk/", 
        "name": "Start Up"
      }
    }, 
    {
      "geometry": {
        "type": "Point", 
        "coordinates": [
          -0.951649, 
          53.6138461
        ]
      }, 
      "type": "Feature", 
      "properties": {
        "url": "https://www.facebook.com/TMCHfoodbank/", 
        "name": "Thorne And Moorends"
      }
    }, 
    {
      "geometry": {
        "type": "Point", 
        "coordinates": [
          -4.3604443, 
          55.83286870000001
        ]
      }, 
      "type": "Feature", 
      "properties": {
        "url": "https://ccg.scot/projects/1073/", 
        "name": "Crookson"
      }
    }, 
    {
      "geometry": {
        "type": "Point", 
        "coordinates": [
          -3.0213632, 
          51.8249064
        ]
      }, 
      "type": "Feature", 
      "properties": {
        "url": "https://abergavenny.foodbank.org.uk", 
        "name": "Abergavenny"
      }
    }, 
    {
      "geometry": {
        "type": "Point", 
        "coordinates": [
          -2.1518796, 
          52.2672321
        ]
      }, 
      "type": "Feature", 
      "properties": {
        "url": "https://droitwichspa.foodbank.org.uk/", 
        "name": "Droitwich Spa"
      }
    }, 
    {
      "geometry": {
        "type": "Point", 
        "coordinates": [
          -4.2092909, 
          51.018445
        ]
      }, 
      "type": "Feature", 
      "properties": {
        "url": "https://northerndevon.foodbank.org.uk", 
        "name": "Northern Devon"
      }
    }, 
    {
      "geometry": {
        "type": "Point", 
        "coordinates": [
          -2.5151942, 
          51.4094256
        ]
      }, 
      "type": "Feature", 
      "properties": {
        "url": "https://keynsham.foodbank.org.uk", 
        "name": "Keynsham"
      }
    }, 
    {
      "geometry": {
        "type": "Point", 
        "coordinates": [
          -7.364731, 
          57.47303299999999
        ]
      }, 
      "type": "Feature", 
      "properties": {
        "url": "https://uistbarra.foodbank.org.uk", 
        "name": "Uist & Barra"
      }
    }, 
    {
      "geometry": {
        "type": "Point", 
        "coordinates": [
          -2.1598628, 
          51.99150539999999
        ]
      }, 
      "type": "Feature", 
      "properties": {
        "url": "https://tewkesbury.foodbank.org.uk", 
        "name": "Tewkesbury"
      }
    }, 
    {
      "geometry": {
        "type": "Point", 
        "coordinates": [
          -4.2302764, 
          57.4817492
        ]
      }, 
      "type": "Feature", 
      "properties": {
        "url": "https://www.blythswood.org/foodbank-addresses", 
        "name": "Highland"
      }
    }, 
    {
      "geometry": {
        "type": "Point", 
        "coordinates": [
          -1.2400907, 
          52.778896
        ]
      }, 
      "type": "Feature", 
      "properties": {
        "url": "https://loughborougharea.foodbank.org.uk", 
        "name": "Loughborough Area"
      }
    }, 
    {
      "geometry": {
        "type": "Point", 
        "coordinates": [
          -1.0695945, 
          54.6186105
        ]
      }, 
      "type": "Feature", 
      "properties": {
        "url": "https://redcararea.foodbank.org.uk", 
        "name": "Redcar"
      }
    }, 
    {
      "geometry": {
        "type": "Point", 
        "coordinates": [
          -1.9715282, 
          50.7961579
        ]
      }, 
      "type": "Feature", 
      "properties": {
        "url": "https://wimbornefoodbank.org.uk", 
        "name": "Wimborne"
      }
    }, 
    {
      "geometry": {
        "type": "Point", 
        "coordinates": [
          1.3978064, 
          51.2271449
        ]
      }, 
      "type": "Feature", 
      "properties": {
        "url": "https://dealarea.foodbank.org.uk", 
        "name": "Deal Area"
      }
    }, 
    {
      "geometry": {
        "type": "Point", 
        "coordinates": [
          -6.2706294, 
          54.8483945
        ]
      }, 
      "type": "Feature", 
      "properties": {
        "url": "https://ballymena.foodbank.org.uk/", 
        "name": "Ballymena"
      }
    }, 
    {
      "geometry": {
        "type": "Point", 
        "coordinates": [
          -0.1034595, 
          51.4324167
        ]
      }, 
      "type": "Feature", 
      "properties": {
        "url": "https://norwoodbrixton.foodbank.org.uk", 
        "name": "Norwood & Brixton"
      }
    }, 
    {
      "geometry": {
        "type": "Point", 
        "coordinates": [
          0.4740029, 
          50.8412666
        ]
      }, 
      "type": "Feature", 
      "properties": {
        "url": "https://bexhill.foodbank.org.uk", 
        "name": "Bexhill"
      }
    }, 
    {
      "geometry": {
        "type": "Point", 
        "coordinates": [
          -4.4928043, 
          55.6026688
        ]
      }, 
      "type": "Feature", 
      "properties": {
        "url": "https://ayrshireeast.foodbank.org.uk/", 
        "name": "East Ayrshire"
      }
    }, 
    {
      "geometry": {
        "type": "Point", 
        "coordinates": [
          -2.5757172, 
          51.4597049
        ]
      }, 
      "type": "Feature", 
      "properties": {
        "url": "https://eastbristol.foodbank.org.uk", 
        "name": "Bristol East"
      }
    }, 
    {
      "geometry": {
        "type": "Point", 
        "coordinates": [
          -3.9231451, 
          50.3881076
        ]
      }, 
      "type": "Feature", 
      "properties": {
        "url": "https://ivybridge.foodbank.org.uk", 
        "name": "Ivybridge"
      }
    }, 
    {
      "geometry": {
        "type": "Point", 
        "coordinates": [
          -0.8970836, 
          52.2402576
        ]
      }, 
      "type": "Feature", 
      "properties": {
        "url": "https://www.restorenorthampton.org.uk/food-bank.html", 
        "name": "Re:store Northampton"
      }
    }, 
    {
      "geometry": {
        "type": "Point", 
        "coordinates": [
          -0.223557, 
          51.978246
        ]
      }, 
      "type": "Feature", 
      "properties": {
        "url": "https://letchworth.foodbank.org.uk", 
        "name": "Letchworth"
      }
    }, 
    {
      "geometry": {
        "type": "Point", 
        "coordinates": [
          -2.2437818, 
          53.49053319999999
        ]
      }, 
      "type": "Feature", 
      "properties": {
        "url": "https://www.boothcentre.org.uk", 
        "name": "Booth Centre"
      }
    }, 
    {
      "geometry": {
        "type": "Point", 
        "coordinates": [
          -0.1987499, 
          51.5246884
        ]
      }, 
      "type": "Feature", 
      "properties": {
        "url": "https://www.npfoodbank.org.uk/", 
        "name": "North Paddington"
      }
    }, 
    {
      "geometry": {
        "type": "Point", 
        "coordinates": [
          -5.9069457, 
          54.58789549999999
        ]
      }, 
      "type": "Feature", 
      "properties": {
        "url": "https://southbelfast.foodbank.org.uk", 
        "name": "Belfast South"
      }
    }, 
    {
      "geometry": {
        "type": "Point", 
        "coordinates": [
          -0.0024633, 
          50.8760002
        ]
      }, 
      "type": "Feature", 
      "properties": {
        "url": "https://www.escis.org.uk/advice/fitzjohns-food-bank-lewes/", 
        "name": "Fitzjohn's"
      }
    }, 
    {
      "geometry": {
        "type": "Point", 
        "coordinates": [
          -2.2479407, 
          53.0441443
        ]
      }, 
      "type": "Feature", 
      "properties": {
        "url": "https://newcastlestaffs.foodbank.org.uk", 
        "name": "Newcastle (Staffs)"
      }
    }, 
    {
      "geometry": {
        "type": "Point", 
        "coordinates": [
          -0.227269, 
          51.7616373
        ]
      }, 
      "type": "Feature", 
      "properties": {
        "url": "https://hatfield.foodbank.org.uk", 
        "name": "Hatfield"
      }
    }, 
    {
      "geometry": {
        "type": "Point", 
        "coordinates": [
          -2.505223, 
          57.0516819
        ]
      }, 
      "type": "Feature", 
      "properties": {
        "url": "https://aberdeenshiresouth.foodbank.org.uk/", 
        "name": "Aberdeenshire South"
      }
    }, 
    {
      "geometry": {
        "type": "Point", 
        "coordinates": [
          -1.9858132, 
          51.3527085
        ]
      }, 
      "type": "Feature", 
      "properties": {
        "url": "https://devizesdistrict.foodbank.org.uk", 
        "name": "Devizes & District"
      }
    }, 
    {
      "geometry": {
        "type": "Point", 
        "coordinates": [
          0.0183932, 
          51.4550288
        ]
      }, 
      "type": "Feature", 
      "properties": {
        "url": "http://www.afril.org.uk/food-bank/", 
        "name": "AFRIL"
      }
    }, 
    {
      "geometry": {
        "type": "Point", 
        "coordinates": [
          -0.7425178000000001, 
          51.6292646
        ]
      }, 
      "type": "Feature", 
      "properties": {
        "url": "https://onecantrust.org.uk/", 
        "name": "One Can Trust (High Wycombe)"
      }
    }, 
    {
      "geometry": {
        "type": "Point", 
        "coordinates": [
          -0.5428775, 
          53.22959789999999
        ]
      }, 
      "type": "Feature", 
      "properties": {
        "url": "https://lincoln.foodbank.org.uk/", 
        "name": "Lincoln"
      }
    }, 
    {
      "geometry": {
        "type": "Point", 
        "coordinates": [
          -2.9617101, 
          58.9829953
        ]
      }, 
      "type": "Feature", 
      "properties": {
        "url": "https://orkney.foodbank.org.uk/give-help/donate-food/", 
        "name": "Orkney"
      }
    }, 
    {
      "geometry": {
        "type": "Point", 
        "coordinates": [
          -0.1189379, 
          51.4884309
        ]
      }, 
      "type": "Feature", 
      "properties": {
        "url": "https://vauxhall.foodbank.org.uk", 
        "name": "Vauxhall"
      }
    }, 
    {
      "geometry": {
        "type": "Point", 
        "coordinates": [
          -1.8771657, 
          52.4906449
        ]
      }, 
      "type": "Feature", 
      "properties": {
        "url": "https://astonnechells.foodbank.org.uk", 
        "name": "Aston & Nechells"
      }
    }, 
    {
      "geometry": {
        "type": "Point", 
        "coordinates": [
          -2.0302771, 
          53.1067891
        ]
      }, 
      "type": "Feature", 
      "properties": {
        "url": "https://leekdistrict.foodbank.org.uk", 
        "name": "Leek & District"
      }
    }, 
    {
      "geometry": {
        "type": "Point", 
        "coordinates": [
          -3.2777752, 
          50.7514523
        ]
      }, 
      "type": "Feature", 
      "properties": {
        "url": "https://otteryurc.wordpress.com/food-bank/", 
        "name": "Ottery St Mary"
      }
    }, 
    {
      "geometry": {
        "type": "Point", 
        "coordinates": [
          -1.558539, 
          54.54133849999999
        ]
      }, 
      "type": "Feature", 
      "properties": {
        "url": "https://www.kingschurchdarlington.org/foodbank/", 
        "name": "King's (Darlington)"
      }
    }, 
    {
      "geometry": {
        "type": "Point", 
        "coordinates": [
          -1.8356186, 
          50.728193
        ]
      }, 
      "type": "Feature", 
      "properties": {
        "url": "https://bournemouth.foodbank.org.uk", 
        "name": "Bournemouth"
      }
    }, 
    {
      "geometry": {
        "type": "Point", 
        "coordinates": [
          -0.8962770999999999, 
          52.2424865
        ]
      }, 
      "type": "Feature", 
      "properties": {
        "url": "https://northamptonhopecentre.org.uk/", 
        "name": "Northampton Hope Centre"
      }
    }, 
    {
      "geometry": {
        "type": "Point", 
        "coordinates": [
          -0.2720314, 
          50.8351345
        ]
      }, 
      "type": "Feature", 
      "properties": {
        "url": "https://shoreham.foodbank.org.uk", 
        "name": "Shoreham"
      }
    }, 
    {
      "geometry": {
        "type": "Point", 
        "coordinates": [
          -1.4139602, 
          53.1633346
        ]
      }, 
      "type": "Feature", 
      "properties": {
        "url": "https://claycross.foodbank.org.uk", 
        "name": "Clay Cross"
      }
    }, 
    {
      "geometry": {
        "type": "Point", 
        "coordinates": [
          0.1640163, 
          51.3964485
        ]
      }, 
      "type": "Feature", 
      "properties": {
        "url": "https://swanleydistrict.foodbank.org.uk", 
        "name": "Swanley and District"
      }
    }, 
    {
      "geometry": {
        "type": "Point", 
        "coordinates": [
          -1.5410809, 
          50.7597594
        ]
      }, 
      "type": "Feature", 
      "properties": {
        "url": "https://basicsbank.org.uk", 
        "name": "New Forest Basics Bank"
      }
    }, 
    {
      "geometry": {
        "type": "Point", 
        "coordinates": [
          0.3461814, 
          53.150057
        ]
      }, 
      "type": "Feature", 
      "properties": {
        "url": "https://www.thestorehouse.co.uk/skegness-food-bank", 
        "name": "Skegness"
      }
    }, 
    {
      "geometry": {
        "type": "Point", 
        "coordinates": [
          -1.8270721, 
          52.6821269
        ]
      }, 
      "type": "Feature", 
      "properties": {
        "url": "https://lichfield.foodbank.org.uk", 
        "name": "Lichfield"
      }
    }, 
    {
      "geometry": {
        "type": "Point", 
        "coordinates": [
          -2.7725291, 
          53.5518096
        ]
      }, 
      "type": "Feature", 
      "properties": {
        "url": "https://skelmersdale.foodbank.org.uk", 
        "name": "Skelmersdale"
      }
    }, 
    {
      "geometry": {
        "type": "Point", 
        "coordinates": [
          -1.170207, 
          52.9110884
        ]
      }, 
      "type": "Feature", 
      "properties": {
        "url": "https://cliftonng11.foodbank.org.uk", 
        "name": "Clifton NG11"
      }
    }, 
    {
      "geometry": {
        "type": "Point", 
        "coordinates": [
          -0.1758741, 
          51.6480086
        ]
      }, 
      "type": "Feature", 
      "properties": {
        "url": "https://chippingbarnet.foodbank.org.uk", 
        "name": "Chipping Barnet"
      }
    }, 
    {
      "geometry": {
        "type": "Point", 
        "coordinates": [
          -0.8008078, 
          52.0507401
        ]
      }, 
      "type": "Feature", 
      "properties": {
        "url": "http://mkfoodbank.org.uk/", 
        "name": "Milton Keynes"
      }
    }, 
    {
      "geometry": {
        "type": "Point", 
        "coordinates": [
          -1.9304708, 
          52.415713
        ]
      }, 
      "type": "Feature", 
      "properties": {
        "url": "https://b30.foodbank.org.uk", 
        "name": "B30"
      }
    }, 
    {
      "geometry": {
        "type": "Point", 
        "coordinates": [
          -0.7627082, 
          51.26129659999999
        ]
      },